{"rooms":[{"id":1,"name":"Cozy Room in Shared House","availabilityFlag":false,"location":{"city":"Nottingham","county":"Nottinghamshire","postcode":"NG15AA","lattitude":"52.954523","longitude":"-1.156208"},"details":{"furnished":true,"amenities":["WiFi","Heating","Kitchen"],"liveInLandlord":false,"sharedWith":3,"billsIncluded":true,"bathroomShared":true},"pricePerMonthGbp":500,"availabilityDate":"2024-07-01","spokenLanguages":["English","Spanish"]},{"id":2,"name":"Spacious Room in Modern Apartment","availabilityFlag":false,"location":{"city":"London","county":"Greater London","postcode":"E16AN","lattitude":"51.518852","longitude":"-0.078510"},"details":{"furnished":true,"amenities":["WiFi","Gym","Laundry"],"liveInLandlord":false,"sharedWith":2,"billsIncluded":false,"bathroomShared":false},"pricePerMonthGbp":850,"availabilityDate":"2024-08-15","spokenLanguages":["English","French"]},{"id":3,"name":"Modern Studio Apartment","availabilityFlag":true,"location":{"city":"Manchester","county":"Greater Manchester","postcode":"M13WE","lattitude":"53.480759","longitude":"-2.242631"},"details":{"furnished":true,"amenities":["WiFi","Heating","Kitchen","Laundry"],"liveInLandlord":false,"sharedWith":0,"billsIncluded":true,"bathroomShared":false},"pricePerMonthGbp":700,"availabilityDate":"2024-09-01","spokenLanguages":["English"]},{"id":4,"name":"Single Room in Family House","availabilityFlag":true,"location":{"city":"Birmingham","county":"West Midlands","postcode":"B11AA","lattitude":"52.486244","longitude":"-1.890401"},"details":{"furnished":true,"amenities":["WiFi","Heating"],"liveInLandlord":true,"sharedWith":4,"billsIncluded":true,"bathroomShared":true},"pricePerMonthGbp":400,"availabilityDate":"2024-06-15","spokenLanguages":["English","German"]},{"id":5,"name":"Double Room in Shared Flat","availabilityFlag":true,"location":{"city":"Edinburgh","county":"Midlothian","postcode":"EH12AA","lattitude":"55.953251","longitude":"-3.188267"},"details":{"furnished":true,"amenities":["WiFi","Heating","Kitchen"],"liveInLandlord":false,"sharedWith":1,"billsIncluded":false,"bathroomShared":true},"pricePerMonthGbp":600,"availabilityDate":"2024-10-01","spokenLanguages":["English","Italian"]}]}